[
  { "name": "Colombo", "district": "Colombo", "latitude": 6.9271, "longitude": 79.8612 },
  { "name": "Kaduwela", "district": "Colombo", "latitude": 6.9333, "longitude": 79.9833 },
  { "name": "Negombo", "district": "Gampaha", "latitude": 7.2083, "longitude": 79.8358 },
  { "name": "Gampaha", "district": "Gampaha", "latitude": 7.0917, "longitude": 79.9994 },
  { "name": "Kalutara", "district": "Kalutara", "latitude": 6.5854, "longitude": 79.9607 },
  { "name": "Horana", "district": "Kalutara", "latitude": 6.7156, "longitude": 80.0625 },
  { "name": "Galle", "district": "Galle", "latitude": 6.0535, "longitude": 80.2210 },
  { "name": "Ambalangoda", "district": "Galle", "latitude": 6.2356, "longitude": 80.0539 },
  { "name": "Matara", "district": "Matara", "latitude": 5.9549, "longitude": 80.5550 },
  { "name": "Ratnapura", "district": "Ratnapura", "latitude": 6.6828, "longitude": 80.3994 },
  { "name": "Embilipitiya", "district": "Ratnapura", "latitude": 6.3431, "longitude": 80.8492 },
  { "name": "Kegalle", "district": "Kegalle", "latitude": 7.2513, "longitude": 80.3464 },
  { "name": "Kandy", "district": "Kandy", "latitude": 7.2906, "longitude": 80.6337 },
  { "name": "Gampola", "district": "Kandy", "latitude": 7.1644, "longitude": 80.5736 },
  { "name": "Kurunegala", "district": "Kurunegala", "latitude": 7.4863, "longitude": 80.3647 },
  { "name": "Puttalam", "district": "Puttalam", "latitude": 8.0362, "longitude": 79.8283 },
  { "name": "Chilaw", "district": "Puttalam", "latitude": 7.5758, "longitude": 79.7953 },
  { "name": "Anuradhapura", "district": "Anuradhapura", "latitude": 8.3114, "longitude": 80.4037 },
  { "name": "Polonnaruwa", "district": "Polonnaruwa", "latitude": 7.9403, "longitude": 81.0188 },
  { "name": "Batticaloa", "district": "Batticaloa", "latitude": 7.7170, "longitude": 81.7000 },
  { "name": "Trincomalee", "district": "Trincomalee", "latitude": 8.5874, "longitude": 81.2152 },
  { "name": "Jaffna", "district": "Jaffna", "latitude": 9.6615, "longitude": 80.0255 },
  { "name": "Vavuniya", "district": "Vavuniya", "latitude": 8.7514, "longitude": 80.4971 },
  { "name": "Badulla", "district": "Badulla", "latitude": 6.9934, "longitude": 81.0550 },
  { "name": "Bandarawela", "district": "Badulla", "latitude": 6.8294, "longitude": 80.9869 },
  { "name": "Nuwara Eliya", "district": "Nuwara Eliya", "latitude": 6.9497, "longitude": 80.7891 },
  { "name": "Hambantota", "district": "Hambantota", "latitude": 6.1241, "longitude": 81.1185 },
  { "name": "Matale", "district": "Matale", "latitude": 7.4675, "longitude": 80.6234 },
  { "name": "Ampara", "district": "Ampara", "latitude": 7.2917, "longitude": 81.6747 },
  { "name": "Monaragala", "district": "Monaragala", "latitude": 6.8714, "longitude": 81.3487 }
]
